{"_id":{"$oid":"5989de581104fb086c258d97"},"category":"한식","title":"가온","img":"https://guide.michelin.co.kr/ko/wp-content/uploads/sites/4/2016/11/IMG_4251-495x250.jpg","grade":"icon-star3","homepage":"https://guide.michelin.co.kr/ko/restaurant/gaon/","address":"강남구 도산대로 317, 호림아트센터 M층","phone":"02-545-9845","__v":0,"lat":"37.5226935","lon":"127.0363642"}
{"_id":{"$oid":"5989de581104fb086c258d98"},"category":"이탈리안","title":"갈리나 데이지","img":"https://guide.michelin.co.kr/ko/wp-content/uploads/sites/4/2016/11/IMG_1663-495x250.jpg","grade":"icon-others","homepage":"https://guide.michelin.co.kr/ko/restaurant/gallina-daisy/","address":"종로구 자하문로 13길 1-4","phone":"02-720-1248","__v":0,"lat":"37.57988","lon":"126.970954"}
{"_id":{"$oid":"5989de581104fb086c258d99"},"category":"만두","title":"개성만두 궁","img":"https://guide.michelin.co.kr/ko/wp-content/uploads/sites/4/2016/11/IMG_1329_1-495x250.jpg","grade":"icon-bib-gourmand","homepage":"https://guide.michelin.co.kr/ko/restaurant/gaeseong-mandu-koong/","address":"종로구 인사동 10길 11-3","phone":"02-733-9240","__v":0,"lat":"37.5742741","lon":"126.9854319"}
{"_id":{"$oid":"5989de581104fb086c258d9a"},"category":"삼계탕","title":"고려 삼계탕","img":"https://guide.michelin.co.kr/ko/wp-content/uploads/sites/4/2016/11/IMG_1010-495x250.jpg","grade":"icon-others","homepage":"https://guide.michelin.co.kr/ko/restaurant/korea-samgye-tang/","address":"중구 서소문로길 1","phone":"02-752-9376","__v":0}
{"_id":{"$oid":"5989de581104fb086c258d9b"},"category":"삼계탕","title":"고봉 삼계탕","img":"https://guide.michelin.co.kr/ko/wp-content/uploads/sites/4/2016/11/IMG_5222-495x250.jpg","grade":"icon-others","homepage":"https://guide.michelin.co.kr/ko/restaurant/gobong-samgye-tang/","address":"중구 명동 7길 21, 2층","phone":"02-756-2300","__v":0,"lat":"37.5647528","lon":"126.9838424"}
{"_id":{"$oid":"5989de581104fb086c258d9c"},"category":"바비큐","title":"곰바위","img":"https://guide.michelin.co.kr/ko/wp-content/uploads/sites/4/2016/11/IMG_1886-495x250.jpg","grade":"icon-others","homepage":"https://guide.michelin.co.kr/ko/restaurant/gom-ba-wie/","address":"강남구 영동대로 115길 10","phone":"02-511-0068","__v":0,"lat":"37.5148956","lon":"127.0588286"}
{"_id":{"$oid":"5989de581104fb086c258d9d"},"category":"한식","title":"곳간","img":"https://guide.michelin.co.kr/ko/wp-content/uploads/sites/4/2016/11/IMG_0932-1-495x250.jpg","grade":"icon-star2","homepage":"https://guide.michelin.co.kr/ko/restaurant/gotgan/","address":"영등포구 여의대로 24, 전경련 회관 50층","phone":"02-2055-4445","__v":0,"lat":"37.5221961","lon":"126.9202079"}
{"_id":{"$oid":"5989de581104fb086c258d9e"},"category":"만두","title":"구복만두","img":"https://guide.michelin.co.kr/ko/wp-content/uploads/sites/4/2016/11/IMG_2471-495x250.jpg","grade":"icon-bib-gourmand","homepage":"https://guide.michelin.co.kr/ko/restaurant/goobok-mandu/","address":"용산구 두텁바위로 10","phone":"02-797-8656","__v":0,"lat":"37.545041","lon":"126.9732512"}
{"_id":{"$oid":"5989de581104fb086c258d9f"},"category":"한식","title":"권숙수","img":"https://guide.michelin.co.kr/ko/wp-content/uploads/sites/4/2016/11/IMG_3815-495x250.jpg","grade":"icon-star2","homepage":"https://guide.michelin.co.kr/ko/restaurant/kwon-sook-soo/","address":"강남구 언주로 170길 27, 2층","phone":"02-542-6268","__v":0,"lat":"37.5267936","lon":"127.0359227"}
{"_id":{"$oid":"5989de581104fb086c258da0"},"category":"두부","title":"백년옥","img":"https://guide.michelin.co.kr/ko/wp-content/uploads/sites/4/2016/11/IMG_5936_re-495x250.jpg","grade":"icon-bib-gourmand","homepage":"https://guide.michelin.co.kr/ko/restaurant/baecnyunok/","address":"서초구 남부순환로 2407","phone":"02-523-2860","__v":0,"lat":"37.4811939","lon":"127.013785"}
{"_id":{"$oid":"5989de581104fb086c258da1"},"category":"중식","title":"백리향","img":"https://guide.michelin.co.kr/ko/wp-content/uploads/sites/4/2016/11/IMG_1199-495x250.jpg","grade":"icon-others","homepage":"https://guide.michelin.co.kr/ko/restaurant/baek-ni-hyang/","address":"영등포구 63로 50, 63빌딩 57층","phone":"02-789-5741","__v":0,"lat":"37.5195044","lon":"126.9398453"}
{"_id":{"$oid":"5989de581104fb086c258da2"},"category":"바비큐","title":"뱀부 하우스","img":"https://guide.michelin.co.kr/ko/wp-content/uploads/sites/4/2016/11/IMG_3693-495x250.jpg","grade":"icon-others","homepage":"https://guide.michelin.co.kr/ko/restaurant/bamboo-house/","address":"강남구 언주로 107길 33","phone":"02-566-0870","__v":0,"lat":"37.5070509","lon":"127.0366562"}
{"_id":{"$oid":"5989de581104fb086c258da3"},"category":"바비큐","title":"버드나무 집","img":"https://guide.michelin.co.kr/ko/wp-content/uploads/sites/4/2016/11/IMG_0355-1-495x250.jpg","grade":"icon-others","homepage":"https://guide.michelin.co.kr/ko/restaurant/budnamujip/","address":"서울시 서초구 효령로 434","phone":"02-3473-4167","__v":0,"lat":"37.4891121","lon":"127.0311965"}
{"_id":{"$oid":"5989de581104fb086c258da4"},"category":"이탈리안","title":"보나세라","img":"https://guide.michelin.co.kr/ko/wp-content/uploads/sites/4/2016/11/Buona-Sera-1_re-495x250.jpg","grade":"icon-others","homepage":"https://guide.michelin.co.kr/ko/restaurant/buona-sera/","address":"강남구 도산대로 45길 18-2","phone":"02-543-6668","__v":0,"lat":"37.5236877","lon":"127.0356678"}
{"_id":{"$oid":"5989de581104fb086c258da5"},"category":"바비큐","title":"보름쇠","img":"https://guide.michelin.co.kr/ko/wp-content/uploads/sites/4/2016/11/IMG_4299-495x250.jpg","grade":"icon-star","homepage":"https://guide.michelin.co.kr/ko/restaurant/bo-reum-soei/","address":"강남구 테헤란로 81길 36","phone":"02-569-9967","__v":0,"lat":"37.5093156","lon":"127.0566505"}
{"_id":{"$oid":"5989de581104fb086c258da6"},"category":"이탈리안","title":"보칼리노","img":"https://guide.michelin.co.kr/ko/wp-content/uploads/sites/4/2016/11/IMG_4830-495x250.jpg","grade":"icon-others","homepage":"https://guide.michelin.co.kr/ko/restaurant/boccalino/","address":"종로구 새문안로 97, 포시즌스 호텔 2층","phone":"02-6388-5500","__v":0,"lat":"37.570699","lon":"126.9754535"}
{"_id":{"$oid":"5989de581104fb086c258da7"},"category":"프렌치 컨템포러리","title":"보트르 메종","img":"https://guide.michelin.co.kr/ko/wp-content/uploads/sites/4/2016/11/IMG_0327-495x250.jpg","grade":"icon-star","homepage":"https://guide.michelin.co.kr/ko/restaurant/votre-maison/","address":"강남구 언주로 168길 16, 지하 1층","phone":"02-549-3800","__v":0,"lat":"37.5261638","lon":"127.0349468"}
{"_id":{"$oid":"5989de581104fb086c258da8"},"category":"스테이크하우스","title":"볼트 스테이크하우스","img":"https://guide.michelin.co.kr/ko/wp-content/uploads/sites/4/2016/11/IMG_1201-495x250.jpg","grade":"icon-others","homepage":"https://guide.michelin.co.kr/ko/restaurant/vault-steakhouse/","address":"강남구 압구정로 72길 22, 2층","phone":"02-544-9235","__v":0,"lat":"37.5250179","lon":"127.0449811"}
{"_id":{"$oid":"5989de581104fb086c258da9"},"category":"냉면","title":"봉피양","img":"https://guide.michelin.co.kr/ko/wp-content/uploads/sites/4/2016/11/IMG_2353-495x250.jpg","grade":"icon-bib-gourmand","homepage":"https://guide.michelin.co.kr/ko/restaurant/bongpiyang/","address":"송파구 양재대로 71길 1-4","phone":"02-415-5527","__v":0,"lat":"37.5100086","lon":"127.126228"}
{"_id":{"$oid":"5989de581104fb086c258daa"},"category":"유러피안 컨템포러리","title":"부띠끄 블루밍","img":"https://guide.michelin.co.kr/ko/wp-content/uploads/sites/4/2016/11/IMG_5953_re-495x250.jpg","grade":"icon-others","homepage":"https://guide.michelin.co.kr/ko/restaurant/boutique-blooming/","address":"강남구 언주로 835, 3층","phone":"02-518-1972","__v":0,"lat":"37.5252359","lon":"127.0328168"}
{"_id":{"$oid":"5989de581104fb086c258dab"},"category":"생태탕","title":"부산식당","img":"https://guide.michelin.co.kr/ko/wp-content/uploads/sites/4/2016/11/IMG_0874-495x250.jpg","grade":"icon-bib-gourmand","homepage":"https://guide.michelin.co.kr/ko/restaurant/busan-sikdang/","address":"종로구 인사동 11길 12","phone":"02-733-5761","__v":0,"lat":"37.5739447","lon":"126.9840307"}
{"_id":{"$oid":"5989de581104fb086c258dac"},"category":"타이","title":"부아","img":"https://guide.michelin.co.kr/ko/wp-content/uploads/sites/4/2016/11/IMG_1399-495x250.jpg","grade":"icon-bib-gourmand","homepage":"https://guide.michelin.co.kr/ko/restaurant/bua/","address":"용산구 보광로 59길 9, 2층","phone":"02-792-3340","__v":0,"lat":"37.5338633","lon":"126.9934666"}
{"_id":{"$oid":"5989de581104fb086c258dad"},"category":"육회","title":"부촌육회","img":"https://guide.michelin.co.kr/ko/wp-content/uploads/sites/4/2016/11/IMG_3145-495x250.jpg","grade":"icon-bib-gourmand","homepage":"https://guide.michelin.co.kr/ko/restaurant/buchon-yukhoe/","address":"종로구 종로 200-12","phone":"02-2267-1831","__v":0,"lat":"37.5703923","lon":"126.9999247"}
{"_id":{"$oid":"5989de581104fb086c258dae"},"category":"한식","title":"북막골","img":"https://guide.michelin.co.kr/ko/wp-content/uploads/sites/4/2016/11/IMG_0836-495x250.jpg","grade":"icon-bib-gourmand","homepage":"https://guide.michelin.co.kr/ko/restaurant/bukmakgol/","address":"종로구 삼청로 124-6","phone":"02-730-0980","__v":0,"lat":"37.5865339","lon":"126.9820339"}
{"_id":{"$oid":"5989de581104fb086c258daf"},"category":"프렌치","title":"비스트로 드 욘트빌","img":"https://guide.michelin.co.kr/ko/wp-content/uploads/sites/4/2016/11/IMG_4230-495x250.jpg","grade":"icon-others","homepage":"https://guide.michelin.co.kr/ko/restaurant/bistrot-de-yountville/","address":"강남구 선릉로 158길 13-7","phone":"02-541-1550","__v":0,"lat":"37.5260781","lon":"127.0412464"}
{"_id":{"$oid":"5989de581104fb086c258db0"},"category":"프렌치","title":"비스트로 차우기","img":"https://guide.michelin.co.kr/ko/wp-content/uploads/sites/4/2016/11/IMG_0972-495x250.jpg","grade":"icon-others","homepage":"https://guide.michelin.co.kr/ko/restaurant/bistrot-chaugi/","address":"종로구 율곡로 6길 31","phone":"02-915-0105","__v":0,"lat":"37.5757941","lon":"126.9894082"}
{"_id":{"$oid":"5989de581104fb086c258db1"},"category":"한식","title":"비채나","img":"https://guide.michelin.co.kr/ko/wp-content/uploads/sites/4/2017/04/그림3-495x250.png","grade":"icon-star","homepage":"https://guide.michelin.co.kr/ko/restaurant/%eb%b9%84%ec%b1%84%eb%82%98/","address":"용산구 이태원로 267, 2층","phone":"02-749-6795","__v":0,"lat":"37.5385136","lon":"127.0011731"}
{"_id":{"$oid":"5989de581104fb086c258db2"},"category":"바비큐","title":"삼원가든","img":"https://guide.michelin.co.kr/ko/wp-content/uploads/sites/4/2016/11/IMG_5004-495x250.jpg","grade":"icon-others","homepage":"https://guide.michelin.co.kr/ko/restaurant/samwon-garden/","address":"강남구 언주로 835","phone":"02-548-3030","__v":0,"lat":"37.5252359","lon":"127.0328168"}
{"_id":{"$oid":"5989de581104fb086c258db3"},"category":"수제비","title":"삼청동 수제비","img":"https://guide.michelin.co.kr/ko/wp-content/uploads/sites/4/2016/11/IMG_1214-495x250.jpg","grade":"icon-others","homepage":"https://guide.michelin.co.kr/ko/restaurant/samcheongdong-sujebi/","address":"종로구 삼청로 101-1","phone":"02-735-2965","__v":0,"lat":"37.5846207","lon":"126.9819229"}
{"_id":{"$oid":"5989de581104fb086c258db4"},"category":"바비큐","title":"새벽집","img":"https://guide.michelin.co.kr/ko/wp-content/uploads/sites/4/2016/11/IMG_0695-495x250.jpg","grade":"icon-others","homepage":"https://guide.michelin.co.kr/ko/restaurant/saebyukjip/","address":"강남구 도산대로 101길 6","phone":"02-546-5739","__v":0,"lat":"37.5255621","lon":"127.0528606"}
{"_id":{"$oid":"5989de581104fb086c258db5"},"category":"이탈리안","title":"서촌김씨","img":"https://guide.michelin.co.kr/ko/wp-content/uploads/sites/4/2016/11/서촌김씨2-495x250.jpg","grade":"icon-others","homepage":"https://guide.michelin.co.kr/ko/restaurant/seochon-chef-kim/","address":"종로구 자하문로 16길 4","phone":"02-730-7787","__v":0,"lat":"37.5814592","lon":"126.9714345"}
{"_id":{"$oid":"5989de581104fb086c258db6"},"category":"한식","title":"석파랑","img":"https://guide.michelin.co.kr/ko/wp-content/uploads/sites/4/2016/11/IMG_1525-1-495x250.jpg","grade":"icon-others","homepage":"https://guide.michelin.co.kr/ko/restaurant/seokparang/","address":"종로구 자하문로 309","phone":"02-395-2500","__v":0,"lat":"37.5992827","lon":"126.9587367"}
{"_id":{"$oid":"5989de581104fb086c258db7"},"category":"프렌치 컨템포러리","title":"수마린","img":"https://guide.michelin.co.kr/ko/wp-content/uploads/sites/4/2016/11/IMG_1258-e1478507581116-495x250.jpg","grade":"icon-others","homepage":"https://guide.michelin.co.kr/ko/restaurant/sous-marin/","address":"용산구 한남대로 20길 47-24, 리플레이스 D동 지하 1층","phone":"02-790-0814","__v":0,"lat":"37.5353666","lon":"127.0100535"}
{"_id":{"$oid":"5989de581104fb086c258db8"},"category":"한식","title":"수불","img":"https://guide.michelin.co.kr/ko/wp-content/uploads/sites/4/2016/11/IMG_5453-495x250.jpg","grade":"icon-others","homepage":"https://guide.michelin.co.kr/ko/restaurant/soobul/","address":"서초구 서래로 4","phone":"02-3478-0886","__v":0,"lat":"37.4952925","lon":"126.9982225"}
{"_id":{"$oid":"5989de581104fb086c258db9"},"category":"이탈리안","title":"스미스가 좋아하는 한옥","img":"https://guide.michelin.co.kr/ko/wp-content/uploads/sites/4/2016/11/IMG_1195-1-495x250.jpg","grade":"icon-others","homepage":"https://guide.michelin.co.kr/ko/restaurant/the-hanok-which-smith-likes/","address":"종로구 삼청로 22-7","phone":"02- 722-7003","__v":0,"lat":"37.5780426","lon":"126.980071"}
{"_id":{"$oid":"5989de581104fb086c258dba"},"category":"소바","title":"스바루","img":"https://guide.michelin.co.kr/ko/wp-content/uploads/sites/4/2016/11/IMG_2034-495x250.jpg","grade":"icon-bib-gourmand","homepage":"https://guide.michelin.co.kr/ko/restaurant/subaru/","address":"서초구 방배로 42길 7","phone":"02-596-4882","__v":0,"lat":"37.4955208","lon":"126.9892459"}
{"_id":{"$oid":"5989de581104fb086c258dbb"},"category":"스시","title":"스시  선수","img":"https://guide.michelin.co.kr/ko/wp-content/uploads/sites/4/2016/11/IMG_5793-495x250.jpg","grade":"icon-others","homepage":"https://guide.michelin.co.kr/ko/restaurant/sushi-sunsoo/","address":"강남구 도산대로 45길 6, 호림아트센터2 M층","phone":"02-514-0812","__v":0,"lat":"37.5228824","lon":"127.0364579"}
{"_id":{"$oid":"5989de581104fb086c258dbc"},"category":"스시","title":"스시 초희","img":"https://guide.michelin.co.kr/ko/wp-content/uploads/sites/4/2016/11/IMG_5016-495x250.jpg","grade":"icon-others","homepage":"https://guide.michelin.co.kr/ko/restaurant/sushi-chohi/","address":"강남구 도산대로 45길 18-6","phone":"02-545-8422","__v":0,"lat":"37.5237759","lon":"127.0359927"}
{"_id":{"$oid":"5989de581104fb086c258dbd"},"category":"스시","title":"스시만","img":"https://guide.michelin.co.kr/ko/wp-content/uploads/sites/4/2016/11/IMG_5718-495x250.jpg","grade":"icon-others","homepage":"https://guide.michelin.co.kr/ko/restaurant/sushi-man/","address":"서초구 동광로 27길 3","phone":"02-533-0181","__v":0,"lat":"37.4941889","lon":"126.9947936"}
{"_id":{"$oid":"5989de581104fb086c258dbe"},"category":"스시","title":"스시조","img":"https://guide.michelin.co.kr/ko/wp-content/uploads/sites/4/2016/11/restaurants_sushicho_view6-495x250.jpg","grade":"icon-others","homepage":"https://guide.michelin.co.kr/ko/restaurant/sushi-cho/","address":"중구 소공로 106, 웨스틴 조선 호텔 20층","phone":"02-317-0373","__v":0,"lat":"37.5645108","lon":"126.9802069"}
{"_id":{"$oid":"5989de581104fb086c258dbf"},"category":"스시","title":"스시효","img":"https://guide.michelin.co.kr/ko/wp-content/uploads/sites/4/2016/11/IMG_4623-495x250.jpg","grade":"icon-others","homepage":"https://guide.michelin.co.kr/ko/restaurant/sushi-hyo/","address":"강남구 선릉로 146길 25","phone":"02-545-0023","__v":0,"lat":"37.522096","lon":"127.0418924"}
{"_id":{"$oid":"5989de581104fb086c258dc0"},"category":"이노베이티브","title":"스와니예","img":"https://guide.michelin.co.kr/ko/wp-content/uploads/sites/4/2016/11/soigne_05_1-495x250.jpg","grade":"icon-star","homepage":"https://guide.michelin.co.kr/ko/restaurant/soigne/","address":"서초구 반포대로 39길 46 지하 1층","phone":"02-3477-9386","__v":0,"lat":"37.4981389","lon":"127.0020078"}
{"_id":{"$oid":"5989de581104fb086c258dc1"},"category":"한식","title":"시화담","img":"https://guide.michelin.co.kr/ko/wp-content/uploads/sites/4/2016/11/메뉴_주전부리-495x250.jpg","grade":"icon-others","homepage":"https://guide.michelin.co.kr/ko/restaurant/si-wha-dam/","address":"용산구 회나무로 75","phone":"02-798-3311","__v":0,"lat":"37.5406722","lon":"126.9948575"}
{"_id":{"$oid":"5989de581104fb086c258dc2"},"category":"프렌치","title":"아 따블르","img":"https://guide.michelin.co.kr/ko/wp-content/uploads/sites/4/2016/11/IMG_0489-495x250.jpg","grade":"icon-others","homepage":"https://guide.michelin.co.kr/ko/restaurant/a-table/","address":"종로구 팔판길 29","phone":"02-736-1048","__v":0,"lat":"37.5831376","lon":"126.9811094"}
{"_id":{"$oid":"5989de581104fb086c258dc3"},"category":"한식","title":"아리랑","img":"https://guide.michelin.co.kr/ko/wp-content/uploads/sites/4/2016/11/IMG_1034_re_3-495x250.jpg","grade":"icon-bib-gourmand","homepage":"https://guide.michelin.co.kr/ko/restaurant/arirang/","address":"중구 남대문로 7길 23","phone":"02-752-1342","__v":0,"lat":"37.5639169","lon":"126.9806035"}
{"_id":{"$oid":"5989de581104fb086c258dc4"},"category":"프렌치","title":"루이 쌍끄","img":"https://guide.michelin.co.kr/ko/wp-content/uploads/sites/4/2016/11/20161128_203602-495x250.jpg","grade":"icon-others","homepage":"https://guide.michelin.co.kr/ko/restaurant/louis-cinq/","address":"강남구 선릉로 157길 33, 2층","phone":"02-547-1259","__v":0,"lat":"37.526289","lon":"127.0370631"}
{"_id":{"$oid":"5989de581104fb086c258dc5"},"category":"이노베이티브","title":"류니끄","img":"https://guide.michelin.co.kr/ko/wp-content/uploads/sites/4/2016/11/IMG_0693-e1478506658702-495x250.jpg","grade":"icon-others","homepage":"https://guide.michelin.co.kr/ko/restaurant/ryunique/","address":"강남구 강남대로 162길 40","phone":"02-546-9279","__v":0,"lat":"37.5207085","lon":"127.0216059"}
{"_id":{"$oid":"5989de581104fb086c258dc6"},"category":"프렌치","title":"르 꽁뜨와","img":"https://guide.michelin.co.kr/ko/wp-content/uploads/sites/4/2016/11/IMG_0989-1-495x250.jpg","grade":"icon-others","homepage":"https://guide.michelin.co.kr/ko/restaurant/le-comptoir/","address":"강남구 도산대로 45길 10-5","phone":"02-512-8506","__v":0,"lat":"37.5234577","lon":"127.0362302"}
{"_id":{"$oid":"5989de581104fb086c258dc7"},"category":"이탈리안 컨템포러리","title":"리스토란테 에오","img":"https://guide.michelin.co.kr/ko/wp-content/uploads/sites/4/2016/11/RISTORANTE-EO_3-495x250.jpg","grade":"icon-star","homepage":"https://guide.michelin.co.kr/ko/restaurant/ristorante-eo/","address":"강남구 도산대로 75길 15","phone":"02-3445-1926","__v":0,"lat":"37.5252042","lon":"127.045735"}
{"_id":{"$oid":"5989de581104fb086c258dc8"},"category":"프렌치 컨템포러리","title":"마누 테라스","img":"https://guide.michelin.co.kr/ko/wp-content/uploads/sites/4/2016/11/Manu-Terrace-copyright-2-495x250.jpg","grade":"icon-others","homepage":"https://guide.michelin.co.kr/ko/restaurant/manu-terrace/","address":"강남구 도산대로 59길 16, 4층","phone":"02-543-9020","__v":0,"lat":"37.5247851","lon":"127.0424156"}
{"_id":{"$oid":"5989de581104fb086c258dc9"},"category":"만두","title":"만두집","img":"https://guide.michelin.co.kr/ko/wp-content/uploads/sites/4/2016/11/IMG_1909-495x250.jpg","grade":"icon-bib-gourmand","homepage":"https://guide.michelin.co.kr/ko/restaurant/mandujip/","address":"강남구 압구정로 338","phone":"02-544-3710","__v":0,"lat":"37.5279296","lon":"127.0388981"}
{"_id":{"$oid":"5989de581104fb086c258dca"},"category":"족발","title":"만족 오향 족발","img":"https://guide.michelin.co.kr/ko/wp-content/uploads/sites/4/2016/11/IMG_1321-495x250.jpg","grade":"icon-bib-gourmand","homepage":"https://guide.michelin.co.kr/ko/restaurant/manjok-ohyang-jokbal/","address":"중구 서소문로 134-7","phone":"02-753-4755","__v":0,"lat":"37.563283","lon":"126.9760255"}
{"_id":{"$oid":"5989de581104fb086c258dcb"},"category":"프렌치","title":"메종 드 라 카테고리","img":"https://guide.michelin.co.kr/ko/wp-content/uploads/sites/4/2016/11/IMG_3944-495x250.jpg","grade":"icon-others","homepage":"https://guide.michelin.co.kr/ko/restaurant/maison-de-la-categorie/","address":"강남구 선릉로 826","phone":"02-545-6640","__v":0,"lat":"37.5255798","lon":"127.0402217"}
{"_id":{"$oid":"5989de581104fb086c258dcc"},"category":"칼국수","title":"명동 교자","img":"https://guide.michelin.co.kr/ko/wp-content/uploads/sites/4/2016/11/IMG_5207-495x250.jpg","grade":"icon-bib-gourmand","homepage":"https://guide.michelin.co.kr/ko/restaurant/myeongdong-kyoja/","address":"중구 명동 10길 29","phone":"02-776-5348","__v":0,"lat":"37.5625823","lon":"126.985756"}
{"_id":{"$oid":"5989de581104fb086c258dcd"},"category":"비빔밥","title":"목멱산방","img":"https://guide.michelin.co.kr/ko/wp-content/uploads/sites/4/2016/11/IMG_1967-495x250.jpg","grade":"icon-others","homepage":"https://guide.michelin.co.kr/ko/restaurant/mokmyeoksanbang/","address":"중구 남산공원길 125-72","phone":"02-318-4790","__v":0,"lat":"37.5523591","lon":"126.9873129"}
{"_id":{"$oid":"5989de581104fb086c258dce"},"category":"칼국수","title":"목천집 (앵콜칼국수)","img":"https://guide.michelin.co.kr/ko/wp-content/uploads/sites/4/2016/11/IMG_5555-495x250.jpg","grade":"icon-bib-gourmand","homepage":"https://guide.michelin.co.kr/ko/restaurant/mokcheon-jip-encore-kal-guksu/","address":"서초구 효령로 52길 69","phone":"02-525-8418","__v":0,"lat":"37.4812988","lon":"127.0134163"}
{"_id":{"$oid":"5989de581104fb086c258dcf"},"category":"중식","title":"몽중헌","img":"https://guide.michelin.co.kr/ko/wp-content/uploads/sites/4/2016/11/RenewalMongjungheon-Chungdam_store-Exterior-495x250.jpg","grade":"icon-others","homepage":"https://guide.michelin.co.kr/ko/restaurant/mongjungheon/","address":"강남구 도산대로 81길 49","phone":"02-3446-7887","__v":0,"lat":"37.5270465","lon":"127.0460119"}
{"_id":{"$oid":"5989de581104fb086c258dd0"},"category":"한식","title":"무궁화","img":"https://guide.michelin.co.kr/ko/wp-content/uploads/sites/4/2016/11/IMG_4860-495x250.jpg","grade":"icon-others","homepage":"https://guide.michelin.co.kr/ko/restaurant/mugunghwa/","address":"중구 을지로 30, 롯데호텔 38층","phone":"02-317-7061","__v":0,"lat":"37.5653618","lon":"126.9810115"}
{"_id":{"$oid":"5989de581104fb086c258dd1"},"category":"이탈리안","title":"미 피아체","img":"https://guide.michelin.co.kr/ko/wp-content/uploads/sites/4/2016/11/IMG_4653-495x250.jpg","grade":"icon-others","homepage":"https://guide.michelin.co.kr/ko/restaurant/mi-piace/","address":"강남구 압구정로 80길 19-2","phone":"02-516-6317","__v":0,"lat":"37.5245168","lon":"127.0449893"}
{"_id":{"$oid":"5989de581104fb086c258dd2"},"category":"한식","title":"민스 키친","img":"https://guide.michelin.co.kr/ko/wp-content/uploads/sites/4/2016/11/IMG_5419-495x250.jpg","grade":"icon-others","homepage":"https://guide.michelin.co.kr/ko/restaurant/mins-kitchen/","address":"강남구 도산대로 45길 10-4, 지하 1층","phone":"02-544-1007","__v":0,"lat":"37.523168","lon":"127.0361876"}
{"_id":{"$oid":"5989de581104fb086c258dd3"},"category":"코리안 컨템포러리","title":"밍글스","img":"https://guide.michelin.co.kr/ko/wp-content/uploads/sites/4/2016/11/IMG_3188-e1478506387846-495x250.jpg","grade":"icon-star","homepage":"https://guide.michelin.co.kr/ko/restaurant/mingles/","address":"강남구 선릉로 757, 1층","phone":"02-515-7306","__v":0,"lat":"37.522225","lon":"127.0390269"}
{"_id":{"$oid":"5989de581104fb086c258dd4"},"category":"사찰음식","title":"발우공양","img":"https://guide.michelin.co.kr/ko/wp-content/uploads/sites/4/2016/11/BALWOOGONGYANG_1-495x250.jpg","grade":"icon-star","homepage":"https://guide.michelin.co.kr/ko/restaurant/balwoo-gongyang/","address":"종로구 우정국로 56 템플스테이 빌딩 5층","phone":"02-733-2081","__v":0,"lat":"37.5739449","lon":"126.9832041"}
{"_id":{"$oid":"5989de581104fb086c258dd5"},"category":"삼계탕","title":"백년 토종 삼계탕","img":"https://guide.michelin.co.kr/ko/wp-content/uploads/sites/4/2016/11/IMG_0586-495x250.jpg","grade":"icon-others","homepage":"https://guide.michelin.co.kr/ko/restaurant/baecnyun-tojong-samgye-tang/","address":"종로구 북촌로 41","phone":"02-747-5535","__v":0,"lat":"37.5806165","lon":"126.9847218"}
{"_id":{"$oid":"5989de581104fb086c258dd6"},"category":"이노베이티브","title":"알라 프리마","img":"https://guide.michelin.co.kr/ko/wp-content/uploads/sites/4/2016/11/Alla-495x250.png","grade":"icon-star","homepage":"https://guide.michelin.co.kr/ko/restaurant/alla-prima/","address":"강남구 도산대로 30길 23","phone":"02-511-2555","__v":0,"lat":"37.5184382","lon":"127.0301247"}
{"_id":{"$oid":"5989de581104fb086c258dd7"},"category":"한식","title":"애류헌","img":"https://guide.michelin.co.kr/ko/wp-content/uploads/sites/4/2016/11/IMG_0837-495x250.jpg","grade":"icon-others","homepage":"https://guide.michelin.co.kr/ko/restaurant/erewhon/","address":"강남구 도산대로 75길 19","phone":"02-3446-0005","__v":0,"lat":"37.5254955","lon":"127.0455625"}
{"_id":{"$oid":"5989de581104fb086c258dd8"},"category":"불고기","title":"역전회관","img":"https://guide.michelin.co.kr/ko/wp-content/uploads/sites/4/2016/11/IMG_1068-495x250.jpg","grade":"icon-bib-gourmand","homepage":"https://guide.michelin.co.kr/ko/restaurant/yukjeon-hoekwan/","address":"마포구 토정로 37길 47","phone":"02-703-0019","__v":0,"lat":"37.5429283","lon":"126.9470201"}
{"_id":{"$oid":"5989de581104fb086c258dd9"},"category":"족발","title":"오가네 족발","img":"https://guide.michelin.co.kr/ko/wp-content/uploads/sites/4/2016/11/IMG_1330-495x250.jpg","grade":"icon-bib-gourmand","homepage":"https://guide.michelin.co.kr/ko/restaurant/ogane-jokbal/","address":"강남구 논현로 36길 21","phone":"02-575-6608","__v":0,"lat":"37.4851132","lon":"127.0435989"}
{"_id":{"$oid":"5989de581104fb086c258dda"},"category":"바비큐","title":"오근내 닭갈비","img":"https://guide.michelin.co.kr/ko/wp-content/uploads/sites/4/2016/11/IMG_2543-495x250.jpg","grade":"icon-bib-gourmand","homepage":"https://guide.michelin.co.kr/ko/restaurant/ogeunnae-dakgalbi/","address":"용산구 이촌로 29길 15","phone":"02-797-0131","__v":0,"lat":"37.5245256","lon":"126.9597262"}
{"_id":{"$oid":"5989de581104fb086c258ddb"},"category":"이탈리안","title":"오스테리아 꼬또","img":"https://guide.michelin.co.kr/ko/wp-content/uploads/sites/4/2016/11/IMG_5816-495x250.jpg","grade":"icon-others","homepage":"https://guide.michelin.co.kr/ko/restaurant/osteria-cotto/","address":"강남구 언주로 835","phone":"02-518-1962","__v":0,"lat":"37.5252359","lon":"127.0328168"}
{"_id":{"$oid":"5989de581104fb086c258ddc"},"category":"냉면","title":"오장동 함흥냉면","img":"https://guide.michelin.co.kr/ko/wp-content/uploads/sites/4/2016/11/IMG_1526-495x250.jpg","grade":"icon-bib-gourmand","homepage":"https://guide.michelin.co.kr/ko/restaurant/ojangdong-hamheung-naengmyeon/","address":"중구 마른내로 108","phone":"02-2267-9500","__v":0,"lat":"37.5642841","lon":"126.9998661"}
{"_id":{"$oid":"5989de581104fb086c258ddd"},"category":"한식","title":"오통영","img":"https://guide.michelin.co.kr/ko/wp-content/uploads/sites/4/2016/11/IMG_0649-495x250.jpg","grade":"icon-bib-gourmand","homepage":"https://guide.michelin.co.kr/ko/restaurant/oh-tongyoung/","address":"강남구 선릉로 158길 10 지하 1층","phone":"02-544-2377","__v":0,"lat":"37.5254451","lon":"127.0408581"}
{"_id":{"$oid":"5989de581104fb086c258dde"},"category":"한식","title":"온달","img":"https://guide.michelin.co.kr/ko/wp-content/uploads/sites/4/2016/11/워커힐-한식당-온달-낮것상차림-495x250.jpg","grade":"icon-others","homepage":"https://guide.michelin.co.kr/ko/restaurant/ondal/","address":"광진구 워커힐로 177, 쉐라톤 그랜드 워커힐 호텔 2층","phone":"02-450-4518","__v":0,"lat":"37.5586439","lon":"127.1117098"}
{"_id":{"$oid":"5989de581104fb086c258ddf"},"category":"중식","title":"도림","img":"https://guide.michelin.co.kr/ko/wp-content/uploads/sites/4/2016/11/IMG_0983-495x250.jpg","grade":"icon-others","homepage":"https://guide.michelin.co.kr/ko/restaurant/toh-lim/","address":"중구 을지로 30 롯데호텔 37층","phone":"02-317-7101","__v":0,"lat":"37.5653618","lon":"126.9810115"}
{"_id":{"$oid":"5989de581104fb086c258de0"},"category":"이노베이티브","title":"도사","img":"https://guide.michelin.co.kr/ko/wp-content/uploads/sites/4/2016/11/IMG_2402-e1478505528103-495x250.jpg","grade":"icon-others","homepage":"https://guide.michelin.co.kr/ko/restaurant/dosa/","address":"강남구 도산대로 67길 7 지하 1층","phone":"02-516-3672","__v":0,"lat":"37.5245062","lon":"127.0444419"}
{"_id":{"$oid":"5989de581104fb086c258de1"},"category":"이탈리안 컨템포러리","title":"도우룸","img":"https://guide.michelin.co.kr/ko/wp-content/uploads/sites/4/2016/11/IMG_1126-495x250.jpg","grade":"icon-others","homepage":"https://guide.michelin.co.kr/ko/restaurant/doughroom/","address":"서초구 동광로 99, 2층","phone":"02-535-9386","__v":0,"lat":"37.4938565","lon":"126.9933419"}
{"_id":{"$oid":"5989de581104fb086c258de2"},"category":"이탈리안","title":"두가헌","img":"https://guide.michelin.co.kr/ko/wp-content/uploads/sites/4/2016/11/IMG_4945-495x250.jpg","grade":"icon-others","homepage":"https://guide.michelin.co.kr/ko/restaurant/dugahun/","address":"종로구 삼청로 14","phone":"02-3210-2100","__v":0,"lat":"37.5773133","lon":"126.9798213"}
{"_id":{"$oid":"5989de581104fb086c258de3"},"category":"한식","title":"두레","img":"https://guide.michelin.co.kr/ko/wp-content/uploads/sites/4/2016/11/IMG_1263_1-495x250.jpg","grade":"icon-others","homepage":"https://guide.michelin.co.kr/ko/restaurant/doore/","address":"종로구 인사동4길 5-24","phone":"02-732-2919","__v":0,"lat":"37.5733686","lon":"126.9866435"}
{"_id":{"$oid":"5989de581104fb086c258de4"},"category":"프렌치","title":"라미띠에","img":"https://guide.michelin.co.kr/ko/wp-content/uploads/sites/4/2016/11/IMG_4155-495x250.jpg","grade":"icon-star","homepage":"https://guide.michelin.co.kr/ko/restaurant/lamitie/","address":"강남구 언주로 153길 7, 2층","phone":"02-546-9621","__v":0,"lat":"37.5226661","lon":"127.0325254"}
{"_id":{"$oid":"5989de581104fb086c258de5"},"category":"한식","title":"라연","img":"https://guide.michelin.co.kr/ko/wp-content/uploads/sites/4/2016/11/LAYEON_1-495x250.jpg","grade":"icon-star3","homepage":"https://guide.michelin.co.kr/ko/restaurant/la-yeon/","address":"중구 동호로 249 신라호텔 23층","phone":"02-2230-3367","__v":0,"lat":"37.5563327","lon":"127.0064244"}
{"_id":{"$oid":"5989de581104fb086c258de6"},"category":"프렌치 컨템포러리","title":"랩 24","img":"https://guide.michelin.co.kr/ko/wp-content/uploads/sites/4/2016/11/IMG_4077-495x250.jpg","grade":"icon-others","homepage":"https://guide.michelin.co.kr/ko/restaurant/lab-xxiv/","address":"강남구 도산대로 57길 18, 2층","phone":"02-511-4523","__v":0,"lat":"37.5247328","lon":"127.0416342"}
{"_id":{"$oid":"5989de581104fb086c258de7"},"category":"프렌치","title":"레스쁘아 뒤 이부","img":"https://guide.michelin.co.kr/ko/wp-content/uploads/sites/4/2016/11/IMG_3202-495x250.jpg","grade":"icon-others","homepage":"https://guide.michelin.co.kr/ko/restaurant/lespoir-du-hibou/","address":"강남구 선릉로 152길 33","phone":"02-517-6034","__v":0,"lat":"37.5245673","lon":"127.0423272"}
{"_id":{"$oid":"5989de591104fb086c258de8"},"category":"칼국수","title":"황생가 칼국수","img":"https://guide.michelin.co.kr/ko/wp-content/uploads/sites/4/2016/11/IMG_0530_1-495x250.jpg","grade":"icon-bib-gourmand","homepage":"https://guide.michelin.co.kr/ko/restaurant/hwangsaenga-kal-guksu/","address":"종로구 북촌로 5길 78","phone":"02-739-6334","__v":0,"lat":"37.5801053","lon":"126.9806577"}
{"_id":{"$oid":"5989de591104fb086c258de9"},"category":"이탈리안","title":"그라노","img":"https://guide.michelin.co.kr/ko/wp-content/uploads/sites/4/2016/11/IMG_5996-495x250.jpg","grade":"icon-others","homepage":"https://guide.michelin.co.kr/ko/restaurant/grano/","address":"강남구 언주로 8길 16번지","phone":"02-540-1330","__v":0}
{"_id":{"$oid":"5989de591104fb086c258dea"},"category":"게장","title":"꽃지","img":"https://guide.michelin.co.kr/ko/wp-content/uploads/sites/4/2016/11/IMG_4018-495x250.jpg","grade":"icon-others","homepage":"https://guide.michelin.co.kr/ko/restaurant/kkotji/","address":"강남구 봉은사로 610","phone":"02-561-8788","__v":0,"lat":"37.5142294","lon":"127.0616312"}
{"_id":{"$oid":"5989de591104fb086c258deb"},"category":"냉면","title":"남포면옥","img":"https://guide.michelin.co.kr/ko/wp-content/uploads/sites/4/2016/11/IMG_0989-495x250.jpg","grade":"icon-others","homepage":"https://guide.michelin.co.kr/ko/restaurant/nampo-myeonok/","address":"중구 을지로 3길 24","phone":"02-777-3131","__v":0,"lat":"37.5671427","lon":"126.9816964"}
{"_id":{"$oid":"5989de591104fb086c258dec"},"category":"냉면","title":"능라도","img":"https://guide.michelin.co.kr/ko/wp-content/uploads/sites/4/2016/11/IMG_4449-495x250.jpg","grade":"icon-bib-gourmand","homepage":"https://guide.michelin.co.kr/ko/restaurant/neung-ra-do/","address":"강남구 언주로 107길  7","phone":"02-569-8939","__v":0,"lat":"37.507401","lon":"127.0382279"}
{"_id":{"$oid":"5989de591104fb086c258ded"},"category":"한식","title":"다담","img":"https://guide.michelin.co.kr/ko/wp-content/uploads/sites/4/2016/11/IMG_3740-495x250.jpg","grade":"icon-others","homepage":"https://guide.michelin.co.kr/ko/restaurant/dadam/","address":"강남구 도산대로 445 지하 1층","phone":"02-518-6161","__v":0,"lat":"37.5243483","lon":"127.0448015"}
{"_id":{"$oid":"5989de591104fb086c258dee"},"category":"프렌치 컨템포러리","title":"다이닝 인 스페이스","img":"https://guide.michelin.co.kr/ko/wp-content/uploads/sites/4/2016/11/IMG_5054-495x250.jpg","grade":"icon-star","homepage":"https://guide.michelin.co.kr/ko/restaurant/dining-in-space/","address":"종로구 율곡로 83 아라리오 스페이스 5층","phone":"02-747-8105","__v":0,"lat":"37.5776467","lon":"126.9884439"}
{"_id":{"$oid":"5989de591104fb086c258def"},"category":"한식","title":"달 식탁","img":"https://guide.michelin.co.kr/ko/wp-content/uploads/sites/4/2016/11/IMG_0184-495x250.jpg","grade":"icon-others","homepage":"https://guide.michelin.co.kr/ko/restaurant/dal-siktak/","address":"강남구 도산대로 15길 11 지하1층","phone":"02-511-9440","__v":0,"lat":"37.5190627","lon":"127.0237974"}
{"_id":{"$oid":"5989de591104fb086c258df0"},"category":"중식","title":"대가방","img":"https://guide.michelin.co.kr/ko/wp-content/uploads/sites/4/2016/11/IMG_3761-495x250.jpg","grade":"icon-others","homepage":"https://guide.michelin.co.kr/ko/restaurant/daegabang/","address":"강남구 선릉로 145길 13","phone":"02-544-6336","__v":0,"lat":"37.5211626","lon":"127.0385549"}
{"_id":{"$oid":"5989de591104fb086c258df1"},"category":"도가니탕","title":"대성집","img":"https://guide.michelin.co.kr/ko/wp-content/uploads/sites/4/2016/11/IMG_0813-495x250.jpg","grade":"icon-bib-gourmand","homepage":"https://guide.michelin.co.kr/ko/restaurant/daesungjip/","address":"종로구 사직로 5","phone":"02-735-4259","__v":0,"lat":"37.572747","lon":"126.960942"}
{"_id":{"$oid":"5989de591104fb086c258df2"},"category":"프렌치 컨템포러리","title":"줄라이","img":"https://guide.michelin.co.kr/ko/wp-content/uploads/sites/4/2016/11/JULY_04-495x250.jpg","grade":"icon-others","homepage":"https://guide.michelin.co.kr/ko/restaurant/july/","address":"서초구 동광로 164","phone":"02-534-9544","__v":0,"lat":"37.49475","lon":"126.9999858"}
{"_id":{"$oid":"5989de591104fb086c258df3"},"category":"한식","title":"지화자","img":"https://guide.michelin.co.kr/ko/wp-content/uploads/sites/4/2016/11/jihwajafood1-495x250.jpg","grade":"icon-others","homepage":"https://guide.michelin.co.kr/ko/restaurant/jihwaja/","address":"종로구 자하문로 125","phone":"02-2269-5834","__v":0,"lat":"37.5871193","lon":"126.9693968"}
{"_id":{"$oid":"5989de591104fb086c258df4"},"category":"게장","title":"진미식당","img":"https://guide.michelin.co.kr/ko/wp-content/uploads/sites/4/2016/11/IMG_1695-495x250.jpg","grade":"icon-others","homepage":"https://guide.michelin.co.kr/ko/restaurant/jinmi-sikdang/","address":"마포구 마포대로 186-6","phone":"02-3211-4468","__v":0,"lat":"37.5505866","lon":"126.9557832"}
{"_id":{"$oid":"5989de591104fb086c258df5"},"category":"중식","title":"진진","img":"https://guide.michelin.co.kr/ko/wp-content/uploads/sites/4/2016/11/IMG_1812-495x250.jpg","grade":"icon-star","homepage":"https://guide.michelin.co.kr/ko/restaurant/jin-jin/","address":"마포구 잔다리로 123","phone":"070-5035-8878","__v":0,"lat":"37.5578089","lon":"126.9132762"}
{"_id":{"$oid":"5989de591104fb086c258df6"},"category":"칼국수","title":"찬양집","img":"https://guide.michelin.co.kr/ko/wp-content/uploads/sites/4/2016/11/IMG_0845-495x250.jpg","grade":"icon-bib-gourmand","homepage":"https://guide.michelin.co.kr/ko/restaurant/chanyangjip/","address":"종로구 돈화문로 11 다길 5","phone":"02-743-1384","__v":0,"lat":"37.5727939","lon":"126.9902943"}
{"_id":{"$oid":"5989de591104fb086c258df7"},"category":"한식","title":"채근담","img":"https://guide.michelin.co.kr/ko/wp-content/uploads/sites/4/2016/11/IMG_6020-495x250.jpg","grade":"icon-others","homepage":"https://guide.michelin.co.kr/ko/restaurant/chaegundaam/","address":"강남구 역삼로 98길 23 지하 1층","phone":"02-555-9173","__v":0,"lat":"37.5034304","lon":"127.0650721"}
{"_id":{"$oid":"5989de591104fb086c258df8"},"category":"바비큐","title":"충무로 쭈꾸미 불고기","img":"https://guide.michelin.co.kr/ko/wp-content/uploads/sites/4/2016/11/IMG_1506-495x250.jpg","grade":"icon-bib-gourmand","homepage":"https://guide.michelin.co.kr/ko/restaurant/chumgmuro-jjukkumi-bulgogi/","address":"중구 퇴계로 31길 11","phone":"02-2279-0803","__v":0,"lat":"37.5617751","lon":"126.9922019"}
{"_id":{"$oid":"5989de591104fb086c258df9"},"category":"일식","title":"카덴","img":"https://guide.michelin.co.kr/ko/wp-content/uploads/sites/4/2016/11/IMG_1222-1-495x250.jpg","grade":"icon-others","homepage":"https://guide.michelin.co.kr/ko/restaurant/caden/","address":"서대문구 연희로 173","phone":"02-337-6360","__v":0,"lat":"37.5725223","lon":"126.9350825"}
{"_id":{"$oid":"5989de591104fb086c258dfa"},"category":"이탈리안 컨템포러리","title":"코로비아","img":"https://guide.michelin.co.kr/ko/wp-content/uploads/sites/4/2016/11/KOROVIAR-FOOD3-495x250.jpg","grade":"icon-others","homepage":"https://guide.michelin.co.kr/ko/restaurant/koroviar/","address":"용산구 대사관로 25","phone":"02-795-9660","__v":0,"lat":"37.5338996","lon":"127.0012086"}
{"_id":{"$oid":"5989de591104fb086c258dfb"},"category":"설렁탕","title":"외고집 설렁탕","img":"https://guide.michelin.co.kr/ko/wp-content/uploads/sites/4/2016/11/IMG_4745-495x250.jpg","grade":"icon-others","homepage":"https://guide.michelin.co.kr/ko/restaurant/oegojip-sellongtang/","address":"강남구 선릉로 64길 15 지하 1층","phone":"02-567-5225","__v":0,"lat":"37.4981155","lon":"127.0534854"}
{"_id":{"$oid":"5989de591104fb086c258dfc"},"category":"추어탕","title":"용금옥","img":"https://guide.michelin.co.kr/ko/wp-content/uploads/sites/4/2016/11/IMG_1670-495x250.jpg","grade":"icon-bib-gourmand","homepage":"https://guide.michelin.co.kr/ko/restaurant/yonggeumok/","address":"종로구 자하문로 41-2","phone":"02-777-4749","__v":0,"lat":"37.579783","lon":"126.9709082"}
{"_id":{"$oid":"5989de591104fb086c258dfd"},"category":"한식","title":"용수산","img":"https://guide.michelin.co.kr/ko/wp-content/uploads/sites/4/2016/11/IMG_0515-495x250.jpg","grade":"icon-bib-gourmand","homepage":"https://guide.michelin.co.kr/ko/restaurant/yongsusan/","address":"종로구 창덕궁 1길 2","phone":"02-743-5999","__v":0,"lat":"37.5794436","lon":"126.9892122"}
{"_id":{"$oid":"5989de591104fb086c258dfe"},"category":"바비큐","title":"우가","img":"https://guide.michelin.co.kr/ko/wp-content/uploads/sites/4/2016/11/IMG_4127-495x250.jpg","grade":"icon-others","homepage":"https://guide.michelin.co.kr/ko/restaurant/wooga/","address":"강남구 도산대로 49길 22 지하 1층","phone":"02-6272-2223","__v":0,"lat":"37.5243661","lon":"127.037382"}
{"_id":{"$oid":"5989de591104fb086c258dff"},"category":"냉면","title":"우래옥","img":"https://guide.michelin.co.kr/ko/wp-content/uploads/sites/4/2016/11/IMG_1022-495x250.jpg","grade":"icon-others","homepage":"https://guide.michelin.co.kr/ko/restaurant/woo-lae-oak/","address":"중구 창경궁로 62-29","phone":"02-2265-0151","__v":0,"lat":"37.568233","lon":"126.9987201"}
{"_id":{"$oid":"5989de591104fb086c258e00"},"category":"스시","title":"우오","img":"https://guide.michelin.co.kr/ko/wp-content/uploads/sites/4/2016/11/IMG_2375-495x250.jpg","grade":"icon-others","homepage":"https://guide.michelin.co.kr/ko/restaurant/uo/","address":"강남구 도산대로 45길 18-10","phone":"02-518-4224","__v":0,"lat":"37.5238535","lon":"127.0364241"}
{"_id":{"$oid":"5989de591104fb086c258e01"},"category":"바비큐","title":"우참판","img":"https://guide.michelin.co.kr/ko/wp-content/uploads/sites/4/2016/11/meet-495x250.jpg","grade":"icon-others","homepage":"https://guide.michelin.co.kr/ko/restaurant/woochampan/","address":"서초구 사평대로 20길 28","phone":"02-537-5940","__v":0,"lat":"37.4982493","lon":"126.9967888"}
{"_id":{"$oid":"5989de591104fb086c258e02"},"category":"중식","title":"유 유안","img":"https://guide.michelin.co.kr/ko/wp-content/uploads/sites/4/2016/11/IMG_0227-495x250.jpg","grade":"icon-star","homepage":"https://guide.michelin.co.kr/ko/restaurant/yu-yuan/","address":"종로구 새문안로 97 포시즌스 호텔 11층","phone":"02-6388-5500","__v":0,"lat":"37.570699","lon":"126.9754535"}
{"_id":{"$oid":"5989de591104fb086c258e03"},"category":"설렁탕","title":"이문 설농탕","img":"https://guide.michelin.co.kr/ko/wp-content/uploads/sites/4/2016/11/IMG_0796-495x250.jpg","grade":"icon-bib-gourmand","homepage":"https://guide.michelin.co.kr/ko/restaurant/imun-seolnongtang/","address":"종로구 우정국로 38-13","phone":"02-733-6526","__v":0,"lat":"37.5727712","lon":"126.983909"}
{"_id":{"$oid":"5989de591104fb086c258e04"},"category":"코리안 컨템포러리","title":"이십사절기","img":"https://guide.michelin.co.kr/ko/wp-content/uploads/sites/4/2016/11/Twenty-Four-Seasons-Copyright-06-495x250.jpg","grade":"icon-star","homepage":"https://guide.michelin.co.kr/ko/restaurant/twenty-four-seasons/","address":"강남구 도산대로 37길 13","phone":"02-518-4818","__v":0,"lat":"37.52194","lon":"127.0311946"}
{"_id":{"$oid":"5989de591104fb086c258e05"},"category":"바비큐","title":"이치류","img":"https://guide.michelin.co.kr/ko/wp-content/uploads/sites/4/2016/11/1-495x250.jpg","grade":"icon-others","homepage":"https://guide.michelin.co.kr/ko/restaurant/ichiryu/","address":"마포구 잔다리로 3안길 44","phone":"02-3144-1312","__v":0,"lat":"37.550651","lon":"126.9191603"}
{"_id":{"$oid":"5989de591104fb086c258e06"},"category":"이탈리안","title":"이태리재","img":"https://guide.michelin.co.kr/ko/wp-content/uploads/sites/4/2016/11/IMG_1178-495x250.jpg","grade":"icon-bib-gourmand","homepage":"https://guide.michelin.co.kr/ko/restaurant/italyjae/","address":"종로구 율곡로 1길 74-9","phone":"070-4233-6262","__v":0,"lat":"37.5788101","lon":"126.9817492"}
{"_id":{"$oid":"5989de591104fb086c258e07"},"category":"칼국수","title":"임병주 산동 칼국수","img":"https://guide.michelin.co.kr/ko/wp-content/uploads/sites/4/2016/11/IMG_3845-495x250.jpg","grade":"icon-bib-gourmand","homepage":"https://guide.michelin.co.kr/ko/restaurant/limbyungjoo-sandong-kal-guksu/","address":"서초구 강남대로 37길 63","phone":"02-3473-7972","__v":0,"lat":"37.4845785","lon":"127.0299814"}
{"_id":{"$oid":"5989de591104fb086c258e08"},"category":"만두","title":"자하 손만두","img":"https://guide.michelin.co.kr/ko/wp-content/uploads/sites/4/2016/11/IMG_0743-e1478506147443-495x250.jpg","grade":"icon-bib-gourmand","homepage":"https://guide.michelin.co.kr/ko/restaurant/jaha-son-mandu/","address":"종로구 백석동길 12","phone":"02-379-2648","__v":0,"lat":"37.593133","lon":"126.9660386"}
{"_id":{"$oid":"5989de591104fb086c258e09"},"category":"코리안 컨템포러리","title":"정식당","img":"https://guide.michelin.co.kr/ko/wp-content/uploads/sites/4/2016/11/IMG_3796-495x250.jpg","grade":"icon-star","homepage":"https://guide.michelin.co.kr/ko/restaurant/jungsik/","address":"강남구 선릉로 158길 11","phone":"02-517-4654","__v":0,"lat":"37.5256706","lon":"127.0410964"}
{"_id":{"$oid":"5989de591104fb086c258e0a"},"category":"냉면","title":"정인면옥","img":"https://guide.michelin.co.kr/ko/wp-content/uploads/sites/4/2016/11/IMG_1617-495x250.jpg","grade":"icon-bib-gourmand","homepage":"https://guide.michelin.co.kr/ko/restaurant/jungin-myeonok/","address":"영등포구 국회대로 76길 10","phone":"02-2683-2615","__v":0,"lat":"37.5306561","lon":"126.9215578"}
{"_id":{"$oid":"5989de591104fb086c258e0b"},"category":"이노베이티브","title":"제로 컴플렉스","img":"https://guide.michelin.co.kr/ko/wp-content/uploads/sites/4/2016/11/88-2-495x250.jpg","grade":"icon-star","homepage":"https://guide.michelin.co.kr/ko/restaurant/zero-complex/","address":"서초구 동광로 113 2층","phone":"02-532-0876","__v":0,"lat":"37.4940476","lon":"126.9947111"}
{"_id":{"$oid":"5989de591104fb086c258e0c"},"category":"코리안 컨템포러리","title":"주옥","img":"https://guide.michelin.co.kr/ko/wp-content/uploads/sites/4/2016/11/IMG_1021-1-495x250.jpg","grade":"icon-others","homepage":"https://guide.michelin.co.kr/ko/restaurant/joo-ok/","address":"강남구 선릉로 148길 52-7","phone":"02-518-9393","__v":0,"lat":"37.5225655","lon":"127.0439913"}
{"_id":{"$oid":"5989de591104fb086c258e0d"},"category":"스시","title":"코지마","img":"https://guide.michelin.co.kr/ko/wp-content/uploads/sites/4/2016/11/IMG_3974-495x250.jpg","grade":"icon-star","homepage":"https://guide.michelin.co.kr/ko/restaurant/kojima/","address":"강남구 압구정로 60길 21, 분더샵 6층","phone":"02-2056-1291","__v":0,"lat":"37.5258798","lon":"127.0419735"}
{"_id":{"$oid":"5989de591104fb086c258e0e"},"category":"프렌치","title":"콘티넨탈","img":"https://guide.michelin.co.kr/ko/wp-content/uploads/sites/4/2016/11/IMG_0975_re1-495x250.jpg","grade":"icon-others","homepage":"https://guide.michelin.co.kr/ko/restaurant/continental/","address":"중구 동호로 249 신라호텔 23층","phone":"02-2230-3369","__v":0,"lat":"37.5563327","lon":"127.0064244"}
{"_id":{"$oid":"5989de591104fb086c258e0f"},"category":"중식","title":"크리스탈 제이드","img":"https://guide.michelin.co.kr/ko/wp-content/uploads/sites/4/2016/11/IMG_11651-495x250.jpg","grade":"icon-others","homepage":"https://guide.michelin.co.kr/ko/restaurant/crystal-jade/","address":"중구 남대문로 7길 16 지하 1층","phone":"02-3789-8088","__v":0,"lat":"37.5641595","lon":"126.981168"}
{"_id":{"$oid":"5989de591104fb086c258e10"},"category":"게장","title":"큰기와집","img":"https://guide.michelin.co.kr/ko/wp-content/uploads/sites/4/2016/11/IMG_0467-495x250.jpg","grade":"icon-star","homepage":"https://guide.michelin.co.kr/ko/restaurant/keunkiwajip/","address":"종로구 북촌로 5길 62","phone":"02-722-9024","__v":0,"lat":"37.579948","lon":"126.9816357"}
{"_id":{"$oid":"5989de591104fb086c258e11"},"category":"일식","title":"키오쿠","img":"https://guide.michelin.co.kr/ko/wp-content/uploads/sites/4/2016/11/IMG_4872-495x250.jpg","grade":"icon-others","homepage":"https://guide.michelin.co.kr/ko/restaurant/kioku/","address":"종로구 새문안로 97 포시즌스 호텔 12층","phone":"02-6388-5500","__v":0,"lat":"37.570699","lon":"126.9754535"}
{"_id":{"$oid":"5989de591104fb086c258e12"},"category":"프렌치","title":"태번 38","img":"https://guide.michelin.co.kr/ko/wp-content/uploads/sites/4/2016/11/TAVERN38_Iberico-Pork-495x250.jpg","grade":"icon-others","homepage":"https://guide.michelin.co.kr/ko/restaurant/tavern-38/","address":"서초구 명달로 22길 12-12","phone":"02-522-3738","__v":0,"lat":"37.4861829","lon":"127.0047285"}
{"_id":{"$oid":"5989de591104fb086c258e13"},"category":"프렌치","title":"테이블 34","img":"https://guide.michelin.co.kr/ko/wp-content/uploads/sites/4/2016/11/IMG_4007-495x250.jpg","grade":"icon-others","homepage":"https://guide.michelin.co.kr/ko/restaurant/table-34/","address":"강남구 테헤란로 521 그랜드 인터컨티넨탈 파르나스 호텔 34층","phone":"02-559-7631","__v":0,"lat":"37.5092369","lon":"127.0608687"}
{"_id":{"$oid":"5989de591104fb086c258e14"},"category":"유러피안 컨템포러리","title":"테이블 포 포","img":"https://guide.michelin.co.kr/ko/wp-content/uploads/sites/4/2016/11/IMG_1358-e1478507808763-495x250.jpg","grade":"icon-others","homepage":"https://guide.michelin.co.kr/ko/restaurant/table-for-four/","address":"서초구 사평대로 14길 11, 2층","phone":"02-3478-0717","__v":0,"lat":"37.4977409","lon":"126.9944641"}
{"_id":{"$oid":"5989de591104fb086c258e15"},"category":"프렌치 컨템포러리","title":"톡톡","img":"https://guide.michelin.co.kr/ko/wp-content/uploads/sites/4/2016/11/H25A1284-495x250.jpg","grade":"icon-others","homepage":"https://guide.michelin.co.kr/ko/restaurant/toc-toc/","address":"강남구 도산대로 51길 33, 3층","phone":"02-542-3030","__v":0,"lat":"37.5253383","lon":"127.0379004"}
{"_id":{"$oid":"5989de591104fb086c258e16"},"category":"타이","title":"툭툭 누들 타이","img":"https://guide.michelin.co.kr/ko/wp-content/uploads/sites/4/2016/11/IMG_1209-495x250.jpg","grade":"icon-bib-gourmand","homepage":"https://guide.michelin.co.kr/ko/restaurant/tuktuk-noodle-thai/","address":"마포구 성미산로 161-8","phone":"070-4407-5130","__v":0,"lat":"37.565188","lon":"126.9240429"}
{"_id":{"$oid":"5989de591104fb086c258e17"},"category":"프렌치","title":"파씨오네","img":"https://guide.michelin.co.kr/ko/wp-content/uploads/sites/4/2016/11/IMG_4577-495x250.jpg","grade":"icon-others","homepage":"https://guide.michelin.co.kr/ko/restaurant/passionne/","address":"강남구 언주로 164길 39","phone":"02-546-7719","__v":0,"lat":"37.5254748","lon":"127.0367555"}
{"_id":{"$oid":"5989de591104fb086c258e18"},"category":"프렌치","title":"팔레 드 고몽","img":"https://guide.michelin.co.kr/ko/wp-content/uploads/sites/4/2016/11/IMG_4823-495x250.jpg","grade":"icon-others","homepage":"https://guide.michelin.co.kr/ko/restaurant/palais-de-gaumont/","address":"강남구 도산대로 81길 21","phone":"02-546-8877","__v":0,"lat":"37.5258103","lon":"127.0472881"}
{"_id":{"$oid":"5989de591104fb086c258e19"},"category":"냉면","title":"평양면옥","img":"https://guide.michelin.co.kr/ko/wp-content/uploads/sites/4/2016/11/IMG_1541-495x250.jpg","grade":"icon-others","homepage":"https://guide.michelin.co.kr/ko/restaurant/pyungyang-myeonok/","address":"중구 장충단로 207","phone":"02-2267-7784","__v":0,"lat":"37.5630338","lon":"127.0064838"}
{"_id":{"$oid":"5989de591104fb086c258e1a"},"category":"한식","title":"품","img":"https://guide.michelin.co.kr/ko/wp-content/uploads/sites/4/2016/11/IMG_2103-495x250.jpg","grade":"icon-star","homepage":"https://guide.michelin.co.kr/ko/restaurant/poom/","address":"용산구 두텁바위로 60길 49, 대원정사 별관 3층","phone":"02-777-9007","__v":0,"lat":"37.5488876","lon":"126.9835964"}
{"_id":{"$oid":"5989de591104fb086c258e1b"},"category":"아메리칸 컨템포러리","title":"플라워 차일드","img":"https://guide.michelin.co.kr/ko/wp-content/uploads/sites/4/2016/11/IMG_2662-495x250.jpg","grade":"icon-others","homepage":"https://guide.michelin.co.kr/ko/restaurant/flower-child/","address":"서초구 동광로 95","phone":"02-553-2574","__v":0,"lat":"37.4937532","lon":"126.9926572"}
{"_id":{"$oid":"5989de591104fb086c258e1c"},"category":"두부","title":"피양콩 할마니","img":"https://guide.michelin.co.kr/ko/wp-content/uploads/sites/4/2016/11/IMG_1094-2-495x250.jpg","grade":"icon-bib-gourmand","homepage":"https://guide.michelin.co.kr/ko/restaurant/piyangkong-halmani/","address":"강남구 삼성로 81길 30","phone":"02-508-0476","__v":0,"lat":"37.5041192","lon":"127.0552702"}
{"_id":{"$oid":"5989de591104fb086c258e1d"},"category":"프렌치 컨템포러리","title":"피에르 가니에르","img":"https://guide.michelin.co.kr/ko/wp-content/uploads/sites/4/2016/11/P-495x250.png","grade":"icon-star2","homepage":"https://guide.michelin.co.kr/ko/restaurant/pierre-gagnaire/","address":"중구 을지로 30 롯데호텔 35층","phone":"02-317-7181","__v":0,"lat":"37.5653618","lon":"126.9810115"}
{"_id":{"$oid":"5989de591104fb086c258e1e"},"category":"한식","title":"필경재","img":"https://guide.michelin.co.kr/ko/wp-content/uploads/sites/4/2016/11/IMG_9886-495x250.jpg","grade":"icon-others","homepage":"https://guide.michelin.co.kr/ko/restaurant/philkyungjae/","address":"강남구 광평로 205","phone":"02-445-2115","__v":0,"lat":"37.4848296","lon":"127.0952027"}
{"_id":{"$oid":"5989de591104fb086c258e1f"},"category":"냉면","title":"필동면옥","img":"https://guide.michelin.co.kr/ko/wp-content/uploads/sites/4/2016/11/IMG_1515-495x250.jpg","grade":"icon-bib-gourmand","homepage":"https://guide.michelin.co.kr/ko/restaurant/pildong-myeonok/","address":"중구 서애로 26","phone":"02-2266-2611","__v":0,"lat":"37.560402","lon":"126.9970063"}
{"_id":{"$oid":"5989de591104fb086c258e20"},"category":"한식","title":"하모","img":"https://guide.michelin.co.kr/ko/wp-content/uploads/sites/4/2016/11/IMG_4366-495x250.jpg","grade":"icon-star","homepage":"https://guide.michelin.co.kr/ko/restaurant/hamo/","address":"강남구 언주로 819, 2층","phone":"02-515-4266","__v":0,"lat":"37.52336","lon":"127.0328139"}
{"_id":{"$oid":"5989de591104fb086c258e21"},"category":"일식","title":"하코네","img":"https://guide.michelin.co.kr/ko/wp-content/uploads/sites/4/2016/11/도다리-성게알-미역국-495x250.jpg","grade":"icon-others","homepage":"https://guide.michelin.co.kr/ko/restaurant/hakone/","address":"강남구 테헤란로 521번지 그랜드 인터컨티넨탈 파르나스 호텔 1층","phone":"02-559-7623","__v":0,"lat":"37.5092369","lon":"127.0608687"}
{"_id":{"$oid":"5989de591104fb086c258e22"},"category":"바비큐","title":"한6감","img":"https://guide.michelin.co.kr/ko/wp-content/uploads/sites/4/2016/11/IMG_0561-495x250.jpg","grade":"icon-others","homepage":"https://guide.michelin.co.kr/ko/restaurant/han6gam/","address":"종로구 종로 33 그랑서울 지하 1층","phone":"02-2158-7933","__v":0,"lat":"37.5709618","lon":"126.981438"}
{"_id":{"$oid":"5989de591104fb086c258e23"},"category":"한식","title":"한일관","img":"https://guide.michelin.co.kr/ko/wp-content/uploads/sites/4/2016/11/IMG_5439_1-495x250.jpg","grade":"icon-bib-gourmand","homepage":"https://guide.michelin.co.kr/ko/restaurant/hanilkwan/","address":"강남구 압구정로 38길 14","phone":"02-732-3735","__v":0,"lat":"37.5277852","lon":"127.0325082"}
{"_id":{"$oid":"5989de591104fb086c258e24"},"category":"족발","title":"할매집","img":"https://guide.michelin.co.kr/ko/wp-content/uploads/sites/4/2016/11/IMG_0684-495x250.jpg","grade":"icon-bib-gourmand","homepage":"https://guide.michelin.co.kr/ko/restaurant/halmaejip/","address":"종로구 사직로 12길 1-5","phone":"02-735-2608","__v":0,"lat":"37.5756878","lon":"126.9714342"}
{"_id":{"$oid":"5989de591104fb086c258e25"},"category":"중식","title":"홍보각","img":"https://guide.michelin.co.kr/ko/wp-content/uploads/sites/4/2016/11/IMG_1710-495x250.jpg","grade":"icon-others","homepage":"https://guide.michelin.co.kr/ko/restaurant/hong-bo-gak/","address":"중구 동호로 287, 그랜드 앰배서더 호텔 2층","phone":"02-2270-3141","__v":0,"lat":"37.5605948","lon":"127.0021241"}
{"_id":{"$oid":"5989de591104fb086c258e26"},"category":"중식","title":"홍연","img":"https://guide.michelin.co.kr/ko/wp-content/uploads/sites/4/2016/11/IMG_1101_1-495x250.jpg","grade":"icon-others","homepage":"https://guide.michelin.co.kr/ko/restaurant/hong-yuan/","address":"중구 소공로 106, 웨스틴 조선 호텔 1층","phone":"02-317-0494","__v":0,"lat":"37.5645108","lon":"126.9802069"}
{"_id":{"$oid":"5989de591104fb086c258e27"},"category":"게장","title":"화해당","img":"https://guide.michelin.co.kr/ko/wp-content/uploads/sites/4/2016/11/IMG_1156-495x250.jpg","grade":"icon-others","homepage":"https://guide.michelin.co.kr/ko/restaurant/hwa-hae-dang/","address":"영등포구 국회대로 74길 20, 205호","phone":"02-785-4422","__v":0,"lat":"37.5296086","lon":"126.9215683"}
